[
  {
    "id": "10102",
    "address": "방어동(1009-9)",
    "lat": 35.4816746,
    "lng": 129.4085415
  },
  {
    "id": "10103",
    "address": "방어동(1009-6)",
    "lat": 35.4821524,
    "lng": 129.4083465
  },
  {
    "id": "10115",
    "address": "염포마을공동",
    "lat": 35.5362615,
    "lng": 129.392919
  },
  {
    "id": "10116",
    "address": "현대자동차사택",
    "lat": 35.5416113,
    "lng": 129.39213
  },
  {
    "id": "10117",
    "address": "염포신전 노상",
    "lat": 35.5356331,
    "lng": 129.39053
  },
  {
    "id": "10119",
    "address": "양정복개천 노상",
    "lat": 35.5472203,
    "lng": 129.384623
  },
  {
    "id": "10120",
    "address": "박물관부설",
    "lat": 35.50376,
    "lng": 129.381675
  },
  {
    "id": "10126",
    "address": "모듈화산업단지제2",
    "lat": 35.5710394,
    "lng": 129.376175
  },
  {
    "id": "10128",
    "address": "모듈화산업단지제1",
    "lat": 35.5797445,
    "lng": 129.373377
  },
  {
    "id": "10132",
    "address": "화동",
    "lat": 35.5911679,
    "lng": 129.373008
  },
  {
    "id": "10135",
    "address": "효문노상",
    "lat": 35.5894989,
    "lng": 129.371282
  },
  {
    "id": "10137",
    "address": "효죽이면",
    "lat": 35.5652387,
    "lng": 129.371041
  },
  {
    "id": "10138",
    "address": "21세기학원 뒤 노상",
    "lat": 35.5877235,
    "lng": 129.370843
  },
  {
    "id": "10147",
    "address": "화봉동 1460-4",
    "lat": 35.5908609,
    "lng": 129.369381
  },
  {
    "id": "10148",
    "address": "효성학원 뒤",
    "lat": 35.583628,
    "lng": 129.369256
  },
  {
    "id": "10149",
    "address": "매곡3산업단지(3)",
    "lat": 35.6418059,
    "lng": 129.368897
  },
  {
    "id": "10150",
    "address": "연암",
    "lat": 35.584028,
    "lng": 129.368617
  },
  {
    "id": "10152",
    "address": "홍길동숯불갈비",
    "lat": 35.5811191,
    "lng": 129.368542
  },
  {
    "id": "10153",
    "address": "울산아파트형공장",
    "lat": 35.5672712,
    "lng": 129.368487
  },
  {
    "id": "10154",
    "address": "화봉",
    "lat": 35.5885756,
    "lng": 129.367835
  },
  {
    "id": "10155",
    "address": "매곡3산업단지(1)",
    "lat": 35.6393132,
    "lng": 129.367819
  },
  {
    "id": "10156",
    "address": "상방공원 이면",
    "lat": 35.5839816,
    "lng": 129.367766
  },
  {
    "id": "10157",
    "address": "상방마을이면",
    "lat": 35.5839816,
    "lng": 129.367766
  },
  {
    "id": "10158",
    "address": "매곡3산업단지(2)",
    "lat": 35.6382108,
    "lng": 129.367521
  },
  {
    "id": "10159",
    "address": "화봉 노상",
    "lat": 35.5879444,
    "lng": 129.367397
  },
  {
    "id": "10160",
    "address": "연암노상",
    "lat": 35.5886125,
    "lng": 129.367329
  },
  {
    "id": "10161",
    "address": "벽산반점 앞",
    "lat": 35.584014,
    "lng": 129.366576
  },
  {
    "id": "10162",
    "address": "상방",
    "lat": 35.582171,
    "lng": 129.365904
  },
  {
    "id": "10164",
    "address": "매곡2산업단지",
    "lat": 35.6512136,
    "lng": 129.364726
  },
  {
    "id": "10165",
    "address": "성원아파트 이면",
    "lat": 35.5867022,
    "lng": 129.364581
  },
  {
    "id": "10166",
    "address": "벽산아파트 이면",
    "lat": 35.5850901,
    "lng": 129.364545
  },
  {
    "id": "10167",
    "address": "상방복개천 노상",
    "lat": 35.5815839,
    "lng": 129.364144
  },
  {
    "id": "10168",
    "address": "매곡1산업단지",
    "lat": 35.6474797,
    "lng": 129.363534
  },
  {
    "id": "10169",
    "address": "화봉동422-1",
    "lat": 35.5928172,
    "lng": 129.361981
  },
  {
    "id": "10171",
    "address": "화봉토속정 노상",
    "lat": 35.5867034,
    "lng": 129.360842
  },
  {
    "id": "10172",
    "address": "일취월장학원 노상",
    "lat": 35.5907146,
    "lng": 129.360761
  },
  {
    "id": "10173",
    "address": "동울산세무소 이면",
    "lat": 35.5867437,
    "lng": 129.359707
  },
  {
    "id": "10175",
    "address": "호계동 375",
    "lat": 35.627358,
    "lng": 129.357633
  },
  {
    "id": "10176",
    "address": "창평공영주차장",
    "lat": 35.6207092,
    "lng": 129.357129
  },
  {
    "id": "10178",
    "address": "호계동 676-8",
    "lat": 35.6241969,
    "lng": 129.356635
  },
  {
    "id": "10179",
    "address": "중산산업단지1",
    "lat": 35.6547274,
    "lng": 129.356461
  },
  {
    "id": "10180",
    "address": "번영교밑",
    "lat": 35.54474,
    "lng": 129.356432
  },
  {
    "id": "10181",
    "address": "호계동 719-3",
    "lat": 35.6260802,
    "lng": 129.355708
  },
  {
    "id": "10182",
    "address": "호계동 283-6",
    "lat": 35.6286332,
    "lng": 129.355551
  },
  {
    "id": "10183",
    "address": "호계시장",
    "lat": 35.6235514,
    "lng": 129.355546
  },
  {
    "id": "10184",
    "address": "호계역1",
    "lat": 35.6210785,
    "lng": 129.355297
  },
  {
    "id": "10185",
    "address": "중산산업단지2(1)",
    "lat": 35.6565486,
    "lng": 129.355024
  },
  {
    "id": "10186",
    "address": "매곡푸르지오",
    "lat": 35.645855,
    "lng": 129.354015
  },
  {
    "id": "10187",
    "address": "호계역3",
    "lat": 35.6253331,
    "lng": 129.352442
  },
  {
    "id": "10188",
    "address": "신천동 331",
    "lat": 35.6319438,
    "lng": 129.352128
  },
  {
    "id": "10189",
    "address": "중산산업단지2(2)",
    "lat": 35.6615249,
    "lng": 129.352123
  },
  {
    "id": "10190",
    "address": "중산산업단지2(3)",
    "lat": 35.6636909,
    "lng": 129.351943
  },
  {
    "id": "10191",
    "address": "호계역2",
    "lat": 35.625057,
    "lng": 129.351816
  },
  {
    "id": "10192",
    "address": "신천공영주차장",
    "lat": 35.6303441,
    "lng": 129.349609
  },
  {
    "id": "10193",
    "address": "남외",
    "lat": 35.56962291,
    "lng": 129.3484847
  },
  {
    "id": "10194",
    "address": "산삼2",
    "lat": 35.53937,
    "lng": 129.345858
  },
  {
    "id": "10196",
    "address": "병영막창거리",
    "lat": 35.56956648,
    "lng": 129.3437938
  },
  {
    "id": "10197",
    "address": "진하해수욕장노상",
    "lat": 35.38476941,
    "lng": 129.3434023
  },
  {
    "id": "10199",
    "address": "공구상가앞",
    "lat": 35.53682,
    "lng": 129.342917
  },
  {
    "id": "10200",
    "address": "공구월드상가옆",
    "lat": 35.53682,
    "lng": 129.342831
  },
  {
    "id": "10202",
    "address": "삼산1",
    "lat": 35.53769,
    "lng": 129.342457
  },
  {
    "id": "10203",
    "address": "약수초등학교",
    "lat": 35.6480159,
    "lng": 129.342079
  },
  {
    "id": "10205",
    "address": "보람병원앞",
    "lat": 35.5434,
    "lng": 129.341547
  },
  {
    "id": "10206",
    "address": "진하",
    "lat": 35.38120216,
    "lng": 129.3411205
  },
  {
    "id": "10207",
    "address": "약수",
    "lat": 35.6496255,
    "lng": 129.340856
  },
  {
    "id": "10209",
    "address": "학성공원",
    "lat": 35.55583779,
    "lng": 129.3374969
  },
  {
    "id": "10210",
    "address": "평창현대앞",
    "lat": 35.54238,
    "lng": 129.336891
  },
  {
    "id": "10213",
    "address": "희망",
    "lat": 35.56968513,
    "lng": 129.3341541
  },
  {
    "id": "10214",
    "address": "학성새벽시장",
    "lat": 35.55702373,
    "lng": 129.3335839
  },
  {
    "id": "10215",
    "address": "화산",
    "lat": 35.43996246,
    "lng": 129.3335153
  },
  {
    "id": "10216",
    "address": "야음동",
    "lat": 35.52343,
    "lng": 129.333135
  },
  {
    "id": "10217",
    "address": "학성새벽시장(노상)",
    "lat": 35.55573461,
    "lng": 129.3322189
  },
  {
    "id": "10218",
    "address": "복산2공원",
    "lat": 35.56622956,
    "lng": 129.3318747
  },
  {
    "id": "10219",
    "address": "천곡초교",
    "lat": 35.6391349,
    "lng": 129.330296
  },
  {
    "id": "10220",
    "address": "남구청부설",
    "lat": 35.54455,
    "lng": 129.330158
  },
  {
    "id": "10221",
    "address": "천곡동공영",
    "lat": 35.6394455,
    "lng": 129.329146
  },
  {
    "id": "10222",
    "address": "울산시장(학산)",
    "lat": 35.55576712,
    "lng": 129.3286737
  },
  {
    "id": "10224",
    "address": "옥교로(번영로하부옆)",
    "lat": 35.55281679,
    "lng": 129.3239266
  },
  {
    "id": "10225",
    "address": "울산병원앞",
    "lat": 35.54766,
    "lng": 129.323553
  },
  {
    "id": "10226",
    "address": "옥교",
    "lat": 35.55383497,
    "lng": 129.3227122
  },
  {
    "id": "10227",
    "address": "강북",
    "lat": 35.55217311,
    "lng": 129.3225408
  },
  {
    "id": "10228",
    "address": "북정공원지하",
    "lat": 35.55770584,
    "lng": 129.3206583
  },
  {
    "id": "10229",
    "address": "성남둔치",
    "lat": 35.55244892,
    "lng": 129.3198231
  },
  {
    "id": "10230",
    "address": "성남",
    "lat": 35.55414294,
    "lng": 129.3168243
  },
  {
    "id": "10231",
    "address": "달천농공단지1",
    "lat": 35.6343429,
    "lng": 129.315731
  },
  {
    "id": "10232",
    "address": "신정동지하",
    "lat": 35.54712,
    "lng": 129.315327
  },
  {
    "id": "10233",
    "address": "달천농공단지2",
    "lat": 35.6387578,
    "lng": 129.315274
  },
  {
    "id": "10234",
    "address": "우정2",
    "lat": 35.55558716,
    "lng": 129.3146297
  },
  {
    "id": "10235",
    "address": "신정3동",
    "lat": 35.5451,
    "lng": 129.313326
  },
  {
    "id": "10236",
    "address": "우정1",
    "lat": 35.55585096,
    "lng": 129.3129039
  },
  {
    "id": "10237",
    "address": "팔등로",
    "lat": 35.54409,
    "lng": 129.312708
  },
  {
    "id": "10238",
    "address": "덕신공공",
    "lat": 35.43003533,
    "lng": 129.3108976
  },
  {
    "id": "10239",
    "address": "여천천2",
    "lat": 35.53187,
    "lng": 129.310656
  },
  {
    "id": "10240",
    "address": "우정성당뒤",
    "lat": 35.56031447,
    "lng": 129.3103857
  },
  {
    "id": "10241",
    "address": "신정시장앞",
    "lat": 35.5424,
    "lng": 129.309877
  },
  {
    "id": "10242",
    "address": "회야강 소공원",
    "lat": 35.4258723,
    "lng": 129.3097702
  },
  {
    "id": "10243",
    "address": "온산노상",
    "lat": 35.43114658,
    "lng": 129.3087671
  },
  {
    "id": "10244",
    "address": "여천천",
    "lat": 35.53254,
    "lng": 129.30872
  },
  {
    "id": "10245",
    "address": "태화시장",
    "lat": 35.55614802,
    "lng": 129.3085018
  },
  {
    "id": "10246",
    "address": "신정1동",
    "lat": 35.5423,
    "lng": 129.308358
  },
  {
    "id": "10247",
    "address": "태화강둔치",
    "lat": 35.55135,
    "lng": 129.307422
  },
  {
    "id": "10248",
    "address": "편백산림욕장2",
    "lat": 35.637891,
    "lng": 129.305028
  },
  {
    "id": "10249",
    "address": "편백산림욕장1",
    "lat": 35.6391442,
    "lng": 129.304048
  },
  {
    "id": "10250",
    "address": "태화둔치5",
    "lat": 35.54586787,
    "lng": 129.301195
  },
  {
    "id": "10252",
    "address": "온양운화 군립도서관",
    "lat": 35.41291108,
    "lng": 129.2761898
  },
  {
    "id": "10254",
    "address": "신삼호교",
    "lat": 35.55516771,
    "lng": 129.2738065
  },
  {
    "id": "10255",
    "address": "어은로",
    "lat": 35.55162,
    "lng": 129.273442
  },
  {
    "id": "10256",
    "address": "무거섬들",
    "lat": 35.54363,
    "lng": 129.261206
  },
  {
    "id": "10257",
    "address": "무거동",
    "lat": 35.55213,
    "lng": 129.259641
  },
  {
    "id": "10258",
    "address": "대운산 Ⅱ",
    "lat": 35.39939263,
    "lng": 129.2547896
  },
  {
    "id": "10259",
    "address": "대운산 Ⅲ",
    "lat": 35.39520142,
    "lng": 129.2446938
  },
  {
    "id": "10260",
    "address": "범서제2민원실",
    "lat": 35.57116704,
    "lng": 129.2440091
  },
  {
    "id": "10261",
    "address": "구영공원",
    "lat": 35.5724872,
    "lng": 129.2414387
  },
  {
    "id": "10262",
    "address": "구영노상",
    "lat": 35.56998306,
    "lng": 129.2396485
  },
  {
    "id": "10263",
    "address": "범서선바위교부근",
    "lat": 35.57750693,
    "lng": 129.2364521
  },
  {
    "id": "10264",
    "address": "청량영해공영주차장",
    "lat": 35.52984151,
    "lng": 129.2332584
  },
  {
    "id": "10265",
    "address": "선바위",
    "lat": 35.58437336,
    "lng": 129.2331353
  },
  {
    "id": "10269",
    "address": "양지마을",
    "lat": 35.65594932,
    "lng": 129.2215208
  },
  {
    "id": "10291",
    "address": "웅촌노상",
    "lat": 35.46561302,
    "lng": 129.2091346
  },
  {
    "id": "10307",
    "address": "봉계 Ⅱ",
    "lat": 35.7138638,
    "lng": 129.1994795
  },
  {
    "id": "10010",
    "address": "주전해안길",
    "lat": 35.5555316,
    "lng": 129.4580706
  },
  {
    "id": "10012",
    "address": "마을둘레길쉼터",
    "lat": 35.5548633,
    "lng": 129.4565209
  },
  {
    "id": "10013",
    "address": "주전군부대앞",
    "lat": 35.5521351,
    "lng": 129.4560914
  },
  {
    "id": "10014",
    "address": "주전새마을다리",
    "lat": 35.5652815,
    "lng": 129.4554729
  },
  {
    "id": "10015",
    "address": "주전몽돌해변",
    "lat": 35.5513115,
    "lng": 129.4550695
  },
  {
    "id": "10017",
    "address": "구유동일원",
    "lat": 35.6135515,
    "lng": 129.453004
  },
  {
    "id": "10018",
    "address": "금천부설",
    "lat": 35.5803018,
    "lng": 129.452662
  },
  {
    "id": "10021",
    "address": "주전북구경계",
    "lat": 35.5714255,
    "lng": 129.4522675
  },
  {
    "id": "10022",
    "address": "구암",
    "lat": 35.5723853,
    "lng": 129.452046
  },
  {
    "id": "10025",
    "address": "강동산음",
    "lat": 35.6242321,
    "lng": 129.44352
  },
  {
    "id": "10026",
    "address": "화암2",
    "lat": 35.6352829,
    "lng": 129.442863
  },
  {
    "id": "10028",
    "address": "강동산하(1)",
    "lat": 35.6266026,
    "lng": 129.442146
  },
  {
    "id": "10029",
    "address": "강동산하(2)",
    "lat": 35.6272297,
    "lng": 129.441878
  },
  {
    "id": "10032",
    "address": "제3강동산하",
    "lat": 35.6286193,
    "lng": 129.441335
  },
  {
    "id": "10034",
    "address": "제2강동산하",
    "lat": 35.6296088,
    "lng": 129.440968
  },
  {
    "id": "10035",
    "address": "신명",
    "lat": 35.6396829,
    "lng": 129.440491
  },
  {
    "id": "10037",
    "address": "대왕왐",
    "lat": 35.4874502,
    "lng": 129.4371288
  },
  {
    "id": "10038",
    "address": "대왕암 임시",
    "lat": 35.4874502,
    "lng": 129.4371288
  },
  {
    "id": "10039",
    "address": "막구직",
    "lat": 35.4906688,
    "lng": 129.434082
  },
  {
    "id": "10040",
    "address": "성끝마을임시",
    "lat": 35.482137,
    "lng": 129.4338867
  },
  {
    "id": "10041",
    "address": "쇠평어린이공원",
    "lat": 35.5509941,
    "lng": 129.4337853
  },
  {
    "id": "10044",
    "address": "일산동(232-4)",
    "lat": 35.5017557,
    "lng": 129.4329001
  },
  {
    "id": "10045",
    "address": "명덕상가공영주차장",
    "lat": 35.5232529,
    "lng": 129.4325862
  },
  {
    "id": "10046",
    "address": "일산동(977-2)",
    "lat": 35.4912137,
    "lng": 129.4324777
  },
  {
    "id": "10047",
    "address": "슬도공영주차장",
    "lat": 35.4804748,
    "lng": 129.4324647
  },
  {
    "id": "10048",
    "address": "방어동(20-41)",
    "lat": 35.4842367,
    "lng": 129.4309292
  },
  {
    "id": "10049",
    "address": "전하동(280-3)",
    "lat": 35.5184224,
    "lng": 129.4309269
  },
  {
    "id": "10050",
    "address": "전하시장공영주차장",
    "lat": 35.5135712,
    "lng": 129.4308795
  },
  {
    "id": "10051",
    "address": "방어동(167-4)",
    "lat": 35.4852532,
    "lng": 129.4306737
  },
  {
    "id": "10052",
    "address": "일산동(948-4)",
    "lat": 35.4981624,
    "lng": 129.4306592
  },
  {
    "id": "10053",
    "address": "명덕로",
    "lat": 35.522451,
    "lng": 129.4302447
  },
  {
    "id": "10054",
    "address": "서부길",
    "lat": 35.5256091,
    "lng": 129.4297355
  },
  {
    "id": "10055",
    "address": "전하공영주차장",
    "lat": 35.510763,
    "lng": 129.4294577
  },
  {
    "id": "10056",
    "address": "남목3동",
    "lat": 35.5438794,
    "lng": 129.4294201
  },
  {
    "id": "10057",
    "address": "일산동(961-1)",
    "lat": 35.4946082,
    "lng": 129.4292797
  },
  {
    "id": "10058",
    "address": "일산해수욕장 중앙",
    "lat": 35.4941969,
    "lng": 129.4292461
  },
  {
    "id": "10059",
    "address": "전하동(544-133)",
    "lat": 35.5128571,
    "lng": 129.4290942
  },
  {
    "id": "10060",
    "address": "학문로",
    "lat": 35.5027664,
    "lng": 129.428464
  },
  {
    "id": "10061",
    "address": "전하동(300)",
    "lat": 35.5176873,
    "lng": 129.4283485
  },
  {
    "id": "10062",
    "address": "전하동(299-10)",
    "lat": 35.5172518,
    "lng": 129.4276934
  },
  {
    "id": "10063",
    "address": "전하동(299-11)",
    "lat": 35.5170904,
    "lng": 129.4270956
  },
  {
    "id": "10064",
    "address": "번덕로주차장",
    "lat": 35.4996629,
    "lng": 129.4266312
  },
  {
    "id": "10065",
    "address": "옥류로 공영주차장",
    "lat": 35.5400311,
    "lng": 129.4264146
  },
  {
    "id": "10066",
    "address": "동울산종합시장",
    "lat": 35.509981,
    "lng": 129.4262608
  },
  {
    "id": "10067",
    "address": "남목2동(257-68)",
    "lat": 35.5271735,
    "lng": 129.4260454
  },
  {
    "id": "10068",
    "address": "남목2동(235-27)",
    "lat": 35.5226547,
    "lng": 129.425866
  },
  {
    "id": "10069",
    "address": "방어동(144-72)",
    "lat": 35.4889698,
    "lng": 129.4252798
  },
  {
    "id": "10070",
    "address": "동축사입구",
    "lat": 35.5470336,
    "lng": 129.424852
  },
  {
    "id": "10071",
    "address": "대학길 제2주차장",
    "lat": 35.4981696,
    "lng": 129.4244913
  },
  {
    "id": "10072",
    "address": "화정동(607-30)",
    "lat": 35.4987752,
    "lng": 129.4244212
  },
  {
    "id": "10073",
    "address": "방어동(462-12)",
    "lat": 35.4870877,
    "lng": 129.4235716
  },
  {
    "id": "10074",
    "address": "방어동(325-4)",
    "lat": 35.4827447,
    "lng": 129.4235006
  },
  {
    "id": "10075",
    "address": "화정동(600-16)",
    "lat": 35.5013236,
    "lng": 129.4234248
  },
  {
    "id": "10076",
    "address": "월봉로 공영주차장",
    "lat": 35.4951664,
    "lng": 129.4231474
  },
  {
    "id": "10078",
    "address": "화정공영지하주차장",
    "lat": 35.4958871,
    "lng": 129.4225911
  },
  {
    "id": "10079",
    "address": "방어동(355-7)",
    "lat": 35.4850368,
    "lng": 129.4222511
  },
  {
    "id": "10083",
    "address": "화정동(880-21)",
    "lat": 35.4916988,
    "lng": 129.4216132
  },
  {
    "id": "10084",
    "address": "화정동(871-13)",
    "lat": 35.4919344,
    "lng": 129.421487
  },
  {
    "id": "10085",
    "address": "방어동(437-18)",
    "lat": 35.486116,
    "lng": 129.4214674
  },
  {
    "id": "10087",
    "address": "화정동(879-17)",
    "lat": 35.4918028,
    "lng": 129.4210425
  },
  {
    "id": "10088",
    "address": "산생마을",
    "lat": 35.5107294,
    "lng": 129.420455
  },
  {
    "id": "10089",
    "address": "월봉로",
    "lat": 35.4952501,
    "lng": 129.4196115
  },
  {
    "id": "10090",
    "address": "방어동(1082-2)",
    "lat": 35.4863153,
    "lng": 129.4193929
  },
  {
    "id": "10091",
    "address": "대학길 제1주차장",
    "lat": 35.4986938,
    "lng": 129.4193374
  },
  {
    "id": "10092",
    "address": "화정동(138-38)",
    "lat": 35.5033418,
    "lng": 129.4192703
  },
  {
    "id": "10094",
    "address": "구견인사무소 무료 공영주차장",
    "lat": 35.4898959,
    "lng": 129.4186404
  },
  {
    "id": "10095",
    "address": "화정동(105)",
    "lat": 35.4996841,
    "lng": 129.4169158
  },
  {
    "id": "10096",
    "address": "방어동(509-1)",
    "lat": 35.4828857,
    "lng": 129.4160032
  },
  {
    "id": "10098",
    "address": "방어동(1025-4)",
    "lat": 35.4785386,
    "lng": 129.4132139
  },
  {
    "id": "10100",
    "address": "방어동(970-2)",
    "lat": 35.4860973,
    "lng": 129.4093975
  },
  {
    "id": "10342",
    "address": "두서농공단지",
    "lat": 35.66703155,
    "lng": 129.1736006
  },
  {
    "id": "10351",
    "address": "두서농공단지 노상",
    "lat": 35.66887476,
    "lng": 129.1717248
  },
  {
    "id": "10410",
    "address": "두서 인보",
    "lat": 35.6408379,
    "lng": 129.1588408
  },
  {
    "id": "10418",
    "address": "반구대",
    "lat": 35.61201379,
    "lng": 129.1580525
  },
  {
    "id": "10521",
    "address": "언양강변",
    "lat": 35.56222177,
    "lng": 129.1248724
  },
  {
    "id": "10749",
    "address": "상북농공단지",
    "lat": 35.60968393,
    "lng": 129.0738109
  },
  {
    "id": "10978",
    "address": "상북배내주차장1",
    "lat": 35.57834027,
    "lng": 129.027196
  },
  {
    "id": "11000",
    "address": "배내주차장2",
    "lat": 35.56744816,
    "lng": 129.0224439
  }
]